{
  "type": "FeatureCollection",
  "features": [
    {
      "type": "Feature",
      "properties": {
        "name": "spain",
        "students": 8
      },
      "geometry": {
        "type": "Point",
        "coordinates": [
          -3.70256,
          40.4165
        ]
      }
    },
    {
      "type": "Feature",
      "properties": {
        "name": "brazil",
        "students": 4
      },
      "geometry": {
        "type": "Point",
        "coordinates": [
          -46.63611,
          -23.5475
        ]
      }
    },
    {
      "type": "Feature",
      "properties": {
        "name": "japan",
        "students": 2
      },
      "geometry": {
        "type": "Point",
        "coordinates": [
          139.69171,
          35.6895
        ]
      }
    },
    {
      "type": "Feature",
      "properties": {
        "name": "portugal",
        "students": 792
      },
      "geometry": {
        "type": "Point",
        "coordinates": [
          -9.13333,
          38.71667
        ]
      }
    },
    {
      "type": "Feature",
      "properties": {
        "name": "germany",
        "students": 16
      },
      "geometry": {
        "type": "Point",
        "coordinates": [
          13.41053,
          52.52437
        ]
      }
    },
    {
      "type": "Feature",
      "properties": {
        "name": "poland",
        "students": 4
      },
      "geometry": {
        "type": "Point",
        "coordinates": [
          21.01178,
          52.22977
        ]
      }
    },
    {
      "type": "Feature",
      "properties": {
        "name": "united arab emirates",
        "students": 4
      },
      "geometry": {
        "type": "Point",
        "coordinates": [
          55.30927,
          25.07725
        ]
      }
    },
    {
      "type": "Feature",
      "properties": {
        "name": "united states of america",
        "students": 26
      },
      "geometry": {
        "type": "Point",
        "coordinates": [
          -118.24368,
          34.05223
        ]
      }
    },
    {
      "type": "Feature",
      "properties": {
        "name": "denmark",
        "students": 2
      },
      "geometry": {
        "type": "Point",
        "coordinates": [
          12.56553,
          55.67594
        ]
      }
    },
    {
      "type": "Feature",
      "properties": {
        "name": "czech republic",
        "students": 2
      },
      "geometry": {
        "type": "Point",
        "coordinates": [
          14.42076,
          50.08804
        ]
      }
    },
    {
      "type": "Feature",
      "properties": {
        "name": "estonia",
        "students": 2
      },
      "geometry": {
        "type": "Point",
        "coordinates": [
          24.75353,
          59.43696
        ]
      }
    },
    {
      "type": "Feature",
      "properties": {
        "name": "sweden",
        "students": 4
      },
      "geometry": {
        "type": "Point",
        "coordinates": [
          18.06871,
          59.32938
        ]
      }
    },
    {
      "type": "Feature",
      "properties": {
        "name": "luxembourg",
        "students": 12
      },
      "geometry": {
        "type": "Point",
        "coordinates": [
          6.13,
          49.61167
        ]
      }
    },
    {
      "type": "Feature",
      "properties": {
        "name": "france",
        "students": 4
      },
      "geometry": {
        "type": "Point",
        "coordinates": [
          2.3488,
          48.85341
        ]
      }
    },
    {
      "type": "Feature",
      "properties": {
        "name": "belgium",
        "students": 10
      },
      "geometry": {
        "type": "Point",
        "coordinates": [
          4.34878,
          50.85045
        ]
      }
    },
    {
      "type": "Feature",
      "properties": {
        "name": "italy",
        "students": 2
      },
      "geometry": {
        "type": "Point",
        "coordinates": [
          12.51133,
          41.89193
        ]
      }
    },
    {
      "type": "Feature",
      "properties": {
        "name": "cape verde",
        "students": 2
      },
      "geometry": {
        "type": "Point",
        "coordinates": [
          -24.0,
          16.0
        ]
      }
    },
    {
      "type": "Feature",
      "properties": {
        "name": "united kingdom",
        "students": 76
      },
      "geometry": {
        "type": "Point",
        "coordinates": [
          -0.12574,
          51.50853
        ]
      }
    },
    {
      "type": "Feature",
      "properties": {
        "name": "switzerland",
        "students": 28
      },
      "geometry": {
        "type": "Point",
        "coordinates": [
          8.55,
          47.36667
        ]
      }
    },
    {
      "type": "Feature",
      "properties": {
        "name": "netherlands",
        "students": 18
      },
      "geometry": {
        "type": "Point",
        "coordinates": [
          4.88969,
          52.37403
        ]
      }
    },
    {
      "type": "Feature",
      "properties": {
        "name": "iceland",
        "students": 2
      },
      "geometry": {
        "type": "Point",
        "coordinates": [
          -21.89541,
          64.13548
        ]
      }
    },
    {
      "type": "Feature",
      "properties": {
        "name": "canada",
        "students": 6
      },
      "geometry": {
        "type": "Point",
        "coordinates": [
          -113.46871,
          53.55014
        ]
      }
    },
    {
      "type": "Feature",
      "properties": {
        "name": "null",
        "students": 4
      },
      "geometry": {
        "type": "Point",
        "coordinates": []
      }
    },
    {
      "type": "Feature",
      "properties": {
        "name": "norway",
        "students": 12
      },
      "geometry": {
        "type": "Point",
        "coordinates": [
          10.74609,
          59.91273
        ]
      }
    },
    {
      "type": "Feature",
      "properties": {
        "name": "austria",
        "students": 4
      },
      "geometry": {
        "type": "Point",
        "coordinates": [
          16.37208,
          48.20849
        ]
      }
    },
    {
      "type": "Feature",
      "properties": {
        "name": "ireland",
        "students": 2
      },
      "geometry": {
        "type": "Point",
        "coordinates": [
          -6.24889,
          53.33306
        ]
      }
    }
  ]
}